"CITY","STATE","LAT","LON","KOPPEN","ELEVATION","ELEVATION_CHANGE","DISTANCE_TO_COAST","WIND"
"ABILENE","TX",32.41,-99.68,"Cfa",545.46,46.86,328.89,4.43
"AKRON_CANTON","OH",40.92,-81.44,"Dfa",370.43,79.78,329.7,4.28
"ALBANY","NY",42.75,-73.8,"Dfb",84.99,53.9,99.8,3.28
"ALBUQUERQUE","NM",35.04,-106.61,"BSk",1619.93,676.9,518.82,3.04
"ALLENTOWN","PA",40.57,-75.49,"Dfa",117.73,130.61,48.4,3.34
"AMARILLO","TX",35.22,-101.72,"BSk",1098.16,134.81,568.23,5.14
"ANCHORAGE","AK",61.17,-150,"Dfc",35.47,189.77,1744.52,4.41
"ASHEVILLE","NC",35.43,-82.54,"Cfb",647.22,279.69,230.86,3.79
"ATLANTA","GA",33.78,-84.52,"Cfa",245.62,86.78,249.43,2.82
"ATLANTIC_CITY","NJ",39.45,-74.57,"Cfa",18.07,8.61,6.44,2.75
"AUGUSTA","GA",33.47,-82.04,"Cfa",129.48,74.7,103.96,2.53
"AUGUSTA","ME",44.32,-69.8,"Dfb",93.78,104.53,18.03,4.03
"AUSTIN","TX",30.32,-97.77,"Cfa",197.53,101.44,134.18,2.3
"BALTIMORE","MD",39.17,-76.68,"Cfa",46.05,140.36,7.33,3.65
"BANGOR","ME",44.8,-68.82,"Dfb",45.42,47.59,16.51,3.71
"BATON_ROUGE","LA",30.54,-91.15,"Cfa",20.2,14.86,55.37,3.53
"BECKLEY","WV",37.8,-81.12,"Cfb",741.83,169.8,263.14,4.84
"BEMIDJI","MN",47.51,-94.93,"Dfb",422.09,53.17,1211.39,4.33
"BETHEL","AK",60.7922,-161.7558,"Dfc",3.3,221.94,2490.13,4.78
"BILLINGS","MT",45.48,-108.32,"BSk",1251.73,300.37,973.14,4.27
"BIRMINGHAM","AL",33.57,-86.75,"Cfa",190.93,42.83,205.33,2.25
"BISMARCK","ND",46.8083,-100.7837,"Dfb",516.65,104.16,1241.7,2.72
"BOISE","ID",43.56704,-116.24053,"Csb",860.46,653.12,494.82,3.22
"BOSTON","MA",42.36,-71.01,"Dfa",3.17,117.39,0.34,3.64
"BRIDGEPORT","CT",41.16,-73.13,"Cfa",1.32,61.62,0.93,3.92
"BROWNSVILLE","TX",25.91,-97.42,"Cfa",5.87,7.34,12.9,4.02
"BUFFALO","NY",42.94,-78.74,"Dfb",216.13,89.29,292.95,2.78
"BUFFALO","WY",44.38122,-106.71947,"BSk",1503.84,955.49,1009.04,4
"BURLINGTON","VT",44.47,-73.15,"Dfb",100.61,273.8,70.64,3.86
"CAGUAS","PR",18.45,-66,"Am",0,2.2,409.87,NA
"CARIBOU","ID",42.52792,-111.40374,"Dfb",1913.69,566.36,759.94,2.44
"CASPER","WY",42.8975,-106.47306,"BSk",1620.77,708.79,926.95,4.6
"CEDAR_RAPIDS","IA",41.88,-91.72,"Dfa",253.57,32.34,799.68,4.54
"CHARLESTON","SC",32.9,-80.04,"Cfa",12.32,11.7,7.44,2.99
"CHARLESTON","WV",38.38,-81.59,"Cfa",276.97,18.08,291.98,3.85
"CHARLOTTE","NC",35.21,-80.95,"Cfa",212.82,26.78,171.57,3.28
"CHARLOTTESVILLE","VA",38.14,-78.46,"Cfa",187.9,521.06,78.4,3.15
"CHATTANOOGA","TN",35.03,-85.2,"Cfa",206.77,375.35,319.87,2.27
"CHEYENNE","WY",41.16,-104.81,"BSk",1856.13,232.57,893.67,4.94
"CHICAGO","IL",41.78,-87.76,"Dfa",188.14,13.69,754.01,2.62
"CINCINNATI","OH",39.11,-84.42,"Cfa",145.68,109.13,489.49,2.84
"CLEVELAND","OH",41.53,-81.67,"Dfa",173.26,195.88,364.92,5.64
"CLOVIS","NM",34.38,-103.32,"BSk",1303.25,82.5899999999999,601.39,4.76
"COLORADO_SPGS","CO",38.81,-104.69,"BSk",1880.21,321.24,781.99,3.34
"COLUMBIA","SC",33.97,-80.99,"Cfa",55.18,69.96,99.14,2.17
"COLUMBUS","GA",32.52,-84.94,"Cfa",120.54,64.01,157.82,2.17
"COLUMBUS","OH",39.99,-82.88,"Cfa",245.88,94.74,395.9,2.96
"CONCORD","NH",43.2,-71,"Dfb",57.42,116.5,19.2,2.35
"CORAL_BAY","VI",18.348,-64.7132,"Am",7.96,6.72,491.9,NA
"CORPUS_CHRISTI","TX",27.77,-97.5,"Cfa",11.61,19.52,4.59,3.91
"CRUZ_BAY","VI",18.34,-64.97,"Am",6.26,5.02,476.25,NA
"CUMBERLAND","MD",39.62,-78.76,"Cfa",228.11,548.8,124.76,2.88
"DALLAS_FT_WORTH","TX",32.85,-96.8,"Cfa",166.9,28.06,245.57,2.55
"DAYTON","OH",39.83,-84,"Cfa",258.56,72.72,468.33,3.84
"DAYTONA_BEACH","FL",29.17,-81,"Cfa",1.24,10.24,2.86,3.07
"DENVER","CO",39.9,-105,"BSk",1644.74,209.49,819.7,2.01
"DES_MOINES","IA",41.53,-93.6,"Dfa",287.16,52.33,796.63,2.97
"DETROIT","MI",42.41,-83,"Dfb",189.17,22.2,474.96,2.73
"DOVER","DE",39.1582,-75.5244,"Cfa",8.67,8.02,8.17,3.04
"DUBOIS","WY",43.5484,-109.6903,"Dfc",2215.57,1621.15,871.81,5.29
"DULUTH","MN",46.72,-92,"Dfb",183.49,231.04,1133.59,5.28
"EAU_CLAIRE","WI",44.87,-91.49,"Dfb",269.65,60.31,1003.09,3.92
"EL_PASO","TX",31.81,-106.3,"BWk",1221.16,97.5599999999999,397.88,3.07
"ELKINS","WV",38.89,-79.8,"Dfb",774.85,237.99,171.42,0.77
"ELKO","NV",40.82404,-115.78635,"BSk",1540.51,484.1,436.27,2.48
"ERIE","PA",42.08,-80.1,"Dfb",283.78,198.13,303.06,3.89
"EUGENE","OR",44.13333,-123.2144,"Csb",108.44,236.72,58.63,3.35
"EVANSVILLE","IN",38.04,-87.5,"Cfa",116.13,31.46,505.18,3.77
"FAIRBANKS","IN",39.01,-87.6,"Cfa",131.97,39.18,571.56,3.52
"FARGO","ND",46.93,-96.8,"Dfb",273.3,10.89,1186.64,4.29
"FLAGSTAFF","AZ",35.14433,-111.6663,"Csb",2133.27,777.38,286.5,3.09
"FLINT","MI",42.97,-83.7,"Dfb",237.74,63.85,536.55,3.06
"FLORENCE","SC",34.19,-79.73,"Cfa",43.42,25.02,63.55,3.25
"FORT_SMITH","AR",35.33,-94.3,"Cfa",136.36,130.47,369.98,2.91
"FORT_THOMPSON","SD",43.77,-99.32,"Dfa",516.18,84.4999999999999,1011.22,4.64
"FORT_WAYNE","IN",40.97,-85.2,"Dfa",241.5,21.89,568.74,4.43
"FRESNO","CA",36.78,-119.7194,"BSk",102.17,53.27,123.02,2.49
"GEORGETOWN","DE",38.69,-75.36,"Cfa",15.35,15.63,12.56,3.87
"GLOCESTER","RI",41.9043,-71.6911,"Cfb",154.14,62.36,21.51,2.57
"GOODLAND","KS",39.37,-101.6,"BSk",1091.98,47.24,802.96,4.69
"GRAND_FORKS","ND",47.95,-97.18,"Dfb",255.24,10.52,1260.54,4.07
"GRAND_JUNCTION","CO",39.13389,-108.5386,"BSk",1468.39,870.94,630.87,2.3
"GRAND_RAPIDS","MI",42.88,-85.5,"Dfb",239.65,32.9,640.21,4.48
"GREAT_FALLS","MT",47.47333,-111.3822,"BSk",1117.24,188.92,746.83,4.95
"GREEN_BAY","WI",44.48,-88.1,"Dfb",196.7,59.95,850.65,2.92
"GREEN_RIVER","UT",38.418037,-110.704038,"BSk",1351.55,309.36,517.94,2.55
"GREENSBORO","NC",36.1,-79.9,"Cfa",268.83,78.65,177.76,3.75
"GREENVILLE","SC",34.85,-82.35,"Cfa",311.69,171.26,189.89,2.59
"GULFPORT","MS",30.41,-89.08,"Cfa",4.84,44.47,3.6,3.32
"GUYMON","OK",36.68,-101.51,"BSk",953.31,89.6800000000001,642.92,4.96
"HAGERSTOWN","MD",39.71,-77.73,"Cfa",213.11,64.76,72.06,2.9
"HARRISBURG","PA",40.22,-76.8,"Cfa",124.76,80.46,63.37,3.59
"HARTFORD_SPGFLD","CT",41.74,-72.6,"Dfa",18.43,187.08,29.52,2.48
"HATTIESBURG","MS",31.27,-89.26,"Cfa",45.47,47.85,61.14,3.11
"HELENA","MT",46.60445,-111.989,"BSk",1177.75,991.1,710.79,3.08
"HONOLULU","HI",21.33,-157.9,"As",1.77,463.99,2651.97,4.1
"HOPE","AR",33.46,-93.99,"Cfa",114.25,44.26,239.85,4.44
"HOULTON","ME",46.12,-67.79,"Dfb",147.21,103.35,73.87,2.95
"HOUSTON","TX",29.64,-95.2,"Cfa",11.41,5.01,10.64,2.48
"HUNTSVILLE","AL",34.68,-86.6,"Cfa",176.72,271.18,282.57,3.08
"INDIANAPOLIS","IN",39.73,-86.2,"Cfa",207.21,82.57,616.62,2.6
"JACKSON","MS",32.33,-90.2,"Cfa",92.27,32.55,133.81,2.5
"JACKSONVILLE","FL",30.23,-81.6,"Cfa",0.56,26.36,14.92,2.26
"JONESBORO","AR",35.84,-90.64,"Cfa",77.83,65.84,377.28,3.91
"JUNEAU","AK",58.35,-134.5,"Dfc",2.34,222.9,759.95,3.13
"KALAOA","HI",19.74,-156.05,"Af",9.88,455.88,2593.37,2.27
"KANSAS_CITY","MO",39.12,-94,"Dfa",241.22,30.88,630.29,4.42
"KEENE","NH",42.9,-72.27,"Dfb",143.47,270.17,92.16,2.53
"KEY_WEST","FL",24.56,-81.7,"Aw",0,1.24,1.05,4.82
"KIHEI","HI",20.89,-156.44,"Af",5,460.76,2577.33,3.65
"KNOXVILLE","TN",35.82,-83.9,"Cfa",263.16,219.7,308.84,2.92
"LAKE_CHARLES","LA",30.13,-93.2,"Cfa",3.03,5.03,24.65,4.16
"LAKEWOOD","NJ",40.18,-74.13,"Cfa",28.68,24.63,8.17,3.19
"LANSING","MI",42.78,-84,"Dfb",270.39,44.05,546.96,4.23
"LAS_CRUCES","NM",32.29,-106.92,"BWk",1354.42,188.47,392.88,3.34
"LAS_VEGAS","NV",36.21205,-115.1939,"BWk",667.36,700.27,254.79,2.96
"LAWRENCE","MA",42.71,-71.13,"Dfb",25.59,65.1,20.05,2.96
"LAWTON","OK",34.56,-98.42,"Cfa",322.77,205.69,405.17,4.48
"LEXINGTON","KY",38.03,-84.6,"Cfa",283.86,132.98,458.58,4.34
"LINCOLN","NE",40.83,-96.7,"Dfa",346.5,102.09,772.94,2.84
"LITTLE_ROCK","AR",34.73,-92.2,"Cfa",76.74,33.62,329.23,3.59
"LITTLETON","NH",44.37,-71.55,"Dfb",314.56,438.27,100.17,1.63
"LOGAN","UT",41.78652,-111.85187,"Dfb",1355.66,224.15,701.23,1.91
"LOS_ANGELES","CA",34.02355,-118.2912,"Csb",53.58,573.13,11.76,1.28
"LOUISVILLE","KY",38.17,-85.7,"Cfa",140.82,71.08,512.54,2.42
"LUBBOCK","TX",33.67,-101.8,"BSk",1001.96,42.4400000000001,492.37,4.86
"MACON","MO",40.1,-92.5,"Dfa",268.31,26.56,688.34,4.96
"MADISON","WI",43.14,-89.3,"Dfb",286.47,43.03,860.23,3.26
"MALTA","MT",48.36694,-107.91934,"BSk",686.68,158.39,985.07,3.74
"MASON_CITY","IA",43.15,-93.33,"Dfa",363.17,27.62,906.34,4.86
"MAYAGUEZ","PR",18.5,-67.13,"Am",62.15,62.14,341.82,NA
"MEDFORD","OR",42.37503,-122.8769,"Csb",400.25,895.09,95.7,1.27
"MEMPHIS","TN",35.06,-89.9,"Cfa",86.66,24.16,322.79,2.79
"MIAMI_BEACH","FL",25.91,-80.2,"Am",1.02,1.18,3.91,1.91
"MIDDLETOWN","CT",41.51,-72.83,"Dfa",29.8,113.03,15.18,3.02
"MIDDLETOWN","RI",41.53,-71.28,"Cfa",46.63,46.63,2.3,3.23
"MIDLAND_ODESSA","TX",32.04,-102,"BSk",848.52,36.89,422.1,3.49
"MILWAUKEE","WI",42.96,-87,"Dfa",175.89,76.34,735.04,7.2
"MISSOULA","MT",46.92083,-114.092,"Dfb",974.09,1443.64,564.06,2.5
"MOBILE","AL",30.61,-88,"Cfa",0,47.94,4.09,5.29
"MONTGOMERY","AL",32.3,-86.4,"Cfa",63.73,19.45,122.69,3.18
"MONTPELIER","VT",44.2,-72.57,"Dfb",356.62,111.64,106.99,2.94
"MORGANTOWN","WV",39.65,-79.92,"Cfb",375,196.62,195.77,3.58
"MPLS_ST_PAUL","MN",44.93,-93,"Dfa",292.61,44.55,1021.56,3.11
"NASHUA","NH",42.78,-71.51,"Dfb",58.21,280.95,43.07,2.46
"NASHVILLE","TN",36.12,-86.6,"Cfa",147.52,30.12,381.53,4.54
"NEW_CASTLE","DE",39.67,-75.61,"Cfa",15.18,85.81,1.87,2.87
"NEW_ORLEANS","LA",30.05,-90,"Cfa",-0.61,1.7,0.3,4.53
"NEW_YORK_CITY","NY",40.78,-73.9,"Cfa",4.88,113.69,0.84,2.76
"NEWARK","NJ",40.68,-74.1,"Cfa",6.25,112.32,1.04,2.95
"NEWPORT","VT",44.89,-72.24,"Dfb",247.36,175.75,95.02,2.33
"NORFOLK","NE",41.98,-97.44,"Dfa",478.85,54.74,859.82,4.87
"NORFOLK","VA",36.93,-76,"Cfa",0,16.25,0.36,5.69
"NORTH_PLATTE","NE",41.12,-100.6,"Dfa",877,45.92,872.95,5.04
"OKLAHOMA_CITY","OK",35.39,-97,"Cfa",338.06,38.46,411.73,5.39
"OLD_HARBOR","AK",57.2028,-153.3039,"Cfc",NA,NA,1860.6,5.15
"OLYMPIA","WA",46.97333,-122.90333,"Csb",61.03,90.1,5.15,3.01
"OMAHA","NE",41.31,-95,"Dfa",372.57,42.94,785.31,4.71
"ORLANDO","FL",28.55,-81.3,"Cfa",27.24,22.61,33.45,2.91
"PADUCAH","KY",37.06,-88.7,"Cfa",130.15,26.35,438.68,4.41
"PENDLETON","OR",45.69757,-118.8344,"Csa",452.64,248.87,266.9,2.65
"PEORIA","IL",40.67,-89.6,"Dfa",136.5,105.37,693.84,2.75
"PHILADELPHIA","PA",39.87,-75.2,"Cfa",-1.28,111.84,0.52,4.83
"PHOENIX","AZ",33.427799,-112.00346,"BWh",339.4,469.1,170.28,2.02
"PITTSBURGH","PA",40.36,-79.9,"Cfa",364.74,59.42,218.53,3.16
"PITTSFIELD","MA",42.43,-73.29,"Dfb",341,258.1,81.93,3.46
"PLAINVILLE","KS",39.2347,-99.2982,"Dfa",652.9,92.22,717.04,3.65
"POCATELLO","ID",42.88987,-112.4323,"Dfb",1423.1,259.02,707.4,3.13
"PONCE","PR",18.5,-67.13,"Am",62.15,62.14,341.82,NA
"PORTLAND","ME",43.64,-70,"Dfb",0,102.85,5.93,6.58
"PORTLAND","OR",45.59578,-122.6091,"Csb",6.8,191.9,56.32,3.86
"PRINCEVILLE","HI",21.98,-159.34,"As",33.44,432.32,2721.13,4.07
"PROVIDENCE","RI",41.72,-71.4,"Cfa",10.57,81.21,1.51,2.74
"PUEBLO","CO",38.29,-104.5,"BSk",1423.88,204.09,768.24,3.09
"RALEIGH_DURHAM","NC",35.89,-78.7,"Cfa",105.01,33.81,116.33,2.37
"RAPID_CITY","SD",44.05,-103,"BSk",973.32,162.24,1127.28,4.7
"RENO","NV",39.546,-119.82,"Csb",1407.95,824.68,154.48,2.02
"RICHMOND","CA",37.8771,-122.248,"Csb",278.37,276.99,3.98,2.95
"RICHMOND","RI",41.4945,-71.6708,"Cfb",37.4,174.54,10.07,2.77
"RICHMOND","VA",37.51,-77.32,"Cfa",48.12,27.43,12.04,3.52
"ROANOKE","VA",37.32,-79.9,"Cfa",351.87,294.53,180.92,2.36
"ROCHESTER","MN",43.9,-92.49,"Dfb",387.43,58.18,945.39,4.83
"ROCHESTER","NY",43.12,-77.6,"Dfb",160.62,73.65,237.69,3.59
"ROCKFORD","IL",42.19,-89,"Dfa",226.69,46.5,793.04,3.33
"RUTLAND","VT",43.53,-72.95,"Dfb",239.72,353.79,136.44,3.62
"SACRAMENTO","CA",38.50674,-121.4959,"Csa",6,27.28,27.95,2.67
"SALEM","OR",44.90493,-123.0009,"Csb",63.31,186.48,69.09,3.23
"SALMON","ID",45.11667,-113.88333,"Dfb",1231.31,980.29,602.82,1.55
"SALT_LAKE_CITY","UT",40.77069,-111.965,"Dfb",1288.42,749.95,639.96,2.43
"SAN_ANGELO","TX",31.35,-100.4,"Cfa",576.82,117.3,311.47,4
"SAN_ANTONIO","CA",38.14178,-122.5546,"Csb",1.19,142.33,4.1,3.21
"SAN_DIEGO","CA",32.73361,-117.183,"BSk",4.24,642.86,0.75,1.15
"SAN_FRANCISCO","CA",37.77056,-122.4269,"Csb",48.6,290.58,2.8,2.48
"SAN_JOSE","CA",37.35917,-121.9241,"Csb",15.13,488.14,10.15,2.16
"SAN_JUAN","PR",18.45,-66.11,"Am",0,2.2,403.25,NA
"SANTA_FE","NM",35.61,-106,"BSk",1998.64,1230.51,575.3,4.04
"SAVANNAH","GA",32.02,-81.1,"Cfa",6.37,10.52,7.18,3.06
"SEATTLE","WA",47.65,-122.3,"Csb",12.91,126.23,4.08,2.17
"SHREVEPORT","LA",32.45,-93.8,"Cfa",64.21,30.52,169.97,2.86
"SIOUX_CITY","IA",42.4,-96.3,"Dfa",330.78,85.47,873,4.3
"SIOUX_FALLS","SD",43.58,-96.7,"Dfa",438.89,54.64,958.28,4.03
"SOMERSET","KY",37.05,-84.62,"Cfa",274.62,54.55,405.4,3.26
"SOUTH_BEND","IN",41.71,-86.3,"Dfa",234.4,21.92,657.17,3.03
"SPOKANE","WA",47.68556,-117.3202,"Csb",595.36,302.3,336.96,2.61
"SPRINGFIELD","IL",39.85,-89.6,"Dfa",176.7,6.84,638.01,3.9
"SPRINGFIELD","MO",37.24,-93.3,"Cfa",405.7,69.1,501.73,3.43
"ST_GEORGE","UT",37.0965,-113.5684,"BSk",799.4,630.79,367.75,1.07
"ST_JOHN","VI",18.3368,-64.7281,"Am",315.79,314.55,491.31,NA
"ST_LOUIS","MO",38.75,-90.3,"Cfa",178.51,35.42,574.61,3.03
"ST_PETERSBURG","FL",27.77,-82.6,"Cfa",0,24.04,1.45,4.79
"ST_STE_MARIE","IL",38.72,-88.1,"Cfa",134.85,33.49,550.8,4.05
"ST_THOMAS","VI",18.34,-64.9,"Am",82.29,81.05,480.57,NA
"SYRACUSE","NY",43.11,-76,"Dfb",122.18,154.61,157.73,3.8
"TALLAHASSEE","FL",30.4,-84.3,"Cfa",14.91,54.18,20.91,2
"TAMPA","FL",27.96,-82.5,"Cfa",11.02,13.02,3.08,2.21
"TOLEDO","OH",41.74,-83.6,"Dfa",192.15,19.12,487.49,3.66
"TOPEKA","KS",39.07,-95.6,"Cfa",257.3,90.55,638.23,4.5
"TORRINGTON","CT",41.94,-72.68,"Dfa",51.59,153.92,44.3,2.66
"TRENTON","NJ",40.28,-74.82,"Cfa",63.49,57.16,22.99,3.74
"TUCSON","AZ",32.16667,-110.8833,"BSh",807.21,187.21,164.87,2.56
"TULSA","OK",36.2,-95.8,"Cfa",225.4,33.49,448.05,4.99
"TUPELO","MS",34.27,-88.7,"Cfa",86.38,52.91,248.07,3.46
"W_PALM_BEACH","FL",26.69,-80,"Af",0,6.73,2.95,5.12
"WACO","TX",31.62,-97.2,"Cfa",140.78,19.56,196.51,4.31
"WASHINGTON_DC","MD",38.85,-77,"Cfa",46.12,70.71,1.14,2.73
"WATERTOWN","SD",44.8994,-97.1151,"Dfa",529.44,84.5999999999999,1053.3,3.37
"WICHITA","KS",37.65,-97.4,"Cfa",397.02,43.11,568.68,4.38
"WICHITA_FALLS","TX",33.98,-98.4,"Cfa",280.9,10.83,372.23,4.47
"WILKES_BARRE","PA",41.34,-75.7,"Dfb",294.66,285.89,102.3,2.56
"WILLISTON","ND",48.26,-103.75,"BSk",711.59,127.74,1272.58,4.82
"WILMINGTON","DE",39.67,-75.6,"Cfa",20.61,89.95,1.33,2.78
"WINNEMUCCA","NV",40.90194,-117.80722,"BSk",1310.73,707.99,320.94,2.66
"WORCESTER","MA",42.27,-71.87,"Dfb",297.63,111.28,45.39,4.01
"YAKIMA","WA",46.56402,-120.5348,"Csb",320.96,358.57,135.32,2.03
"YOUNGSTOWN","OH",41.25,-80.6,"Dfb",347.91,61.87,292.63,3.77
"YUMA","AZ",32.65944,-114.593,"BWh",64.04,51.27,56.25,2.61
